#version,serial,flight,call,time,state,state_name,acceleration,pressure,altitude,height,speed,temperature,drogue_voltage,main_voltage,battery_voltage,accel_x,accel_y,accel_z,gyro_roll,gyro_pitch,gyro_yaw,mag_x,mag_y,mag_z,tilt,pyro,igniter_a,igniter_b,igniter_c,igniter_d,connected,locked,nsat,latitude,longitude,altitude,year,month,day,hour,minute,second,pad_dist,pad_range,pad_az,pad_el,pdop,hdop,vdop,sat01,sat02,sat03,sat04,sat05,sat06,sat07,sat08,sat09,sat10,sat11,sat12,sat13,sat14,sat15,sat16,sat17,sat18,sat19,sat20,sat21,sat22,sat23,sat24,sat25,sat26,sat27,sat28,sat29,sat30,sat31,sat32
6, 6583, 3,VE3LIC,    -0.30, 3,   boost,    1.47,  86334.00, 1330.09,    0.28,     NaN, 33.4, 4.00, 3.98, 3.98,   0.00,   0.00,   0.00,   0.00,  -0.06,   0.00,   0.00,   0.00,   0.00,    NaN, 4.01, 0.00, 0.00, 0.00, 0.00, 1, 1, 11,  32.9395109,-106.9114318,  1394.0, 2022,  6, 24, 15, 17, 16,        0,        0,   0,   0,   1.4,   0.8,   1.1,  0, 31, 31,  0,  0, 32,  0,  0,  0,  0, 32, 36, 31, 27,  0,  0, 35,  0, 31, 29,  0,  0,  0, 27,  0,  0,  0,  0,  0, 31,  0,  0
6, 6583, 3,VE3LIC,    -0.29, 3,   boost,   -1.47,  86336.00, 1329.90,    0.09,     NaN, 33.4, 4.00, 3.98, 3.98,   0.00,   0.00,   0.00,  64.15,  64.46,   0.00,   0.00,   0.00,   0.00,    NaN, 4.01, 0.00, 0.00, 0.00, 0.00, 1, 1, 11,  32.9395109,-106.9114318,  1394.0, 2022,  6, 24, 15, 17, 16,        0,        0,   0,   0,   1.4,   0.8,   1.1,  0, 31, 31,  0,  0, 32,  0,  0,  0,  0, 32, 36, 31, 27,  0,  0, 35,  0, 31, 29,  0,  0,  0, 27,  0,  0,  0,  0,  0, 31,  0,  0
6, 6583, 3,VE3LIC,    -0.28, 3,   boost,   -0.00,  86346.00, 1328.95,   -0.85,     NaN, 33.5, 4.00, 3.98, 3.98,   0.00,   0.00,   0.00,  64.15,  64.46,   0.00,   0.00,   0.00,   0.00,    NaN, 4.01, 0.00, 0.00, 0.00, 0.00, 1, 1, 11,  32.9395109,-106.9114318,  1394.0, 2022,  6, 24, 15, 17, 16,        0,        0,   0,   0,   1.4,   0.8,   1.1,  0, 31, 31,  0,  0, 32,  0,  0,  0,  0, 32, 36, 31, 27,  0,  0, 35,  0, 31, 29,  0,  0,  0, 27,  0,  0,  0,  0,  0, 31,  0,  0
6, 6583, 3,VE3LIC,    -0.27, 3,   boost,   -0.98,  86330.00, 1330.46,    0.66,     NaN, 33.5, 4.00, 3.98, 3.98,   0.00,   0.00,   0.00,  64.15,  64.46,   0.00,   0.00,   0.00,   0.00,    NaN, 4.01, 0.00, 0.00, 0.00, 0.00, 1, 1, 11,  32.9395109,-106.9114318,  1394.0, 2022,  6, 24, 15, 17, 16,        0,        0,   0,   0,   1.4,   0.8,   1.1,  0, 31, 31,  0,  0, 32,  0,  0,  0,  0, 32, 36, 31, 27,  0,  0, 35,  0, 31, 29,  0,  0,  0, 27,  0,  0,  0,  0,  0, 31,  0,  0
6, 6583, 3,VE3LIC,    -0.26, 3,   boost,    0.98,  86347.00, 1328.85,   -0.95,     NaN, 33.4, 4.00, 3.98, 3.98,   0.00,   0.00,   0.00,  64.15,  64.46,   0.00,   0.00,   0.00,   0.00,    NaN, 4.01, 0.00, 0.00, 0.00, 0.00, 1, 1, 11,  32.9395109,-106.9114318,  1394.0, 2022,  6, 24, 15, 17, 16,        0,        0,   0,   0,   1.4,   0.8,   1.1,  0, 31, 31,  0,  0, 32,  0,  0,  0,  0, 32, 36, 31, 27,  0,  0, 35,  0, 31, 29,  0,  0,  0, 27,  0,  0,  0,  0,  0, 31,  0,  0
6, 6583, 3,VE3LIC,    -0.25, 3,   boost,   -1.96,  86342.00, 1329.33,   -0.47,     NaN, 33.4, 4.00, 3.98, 3.98,   0.00,   0.00,   0.00,  64.15,  64.46,   0.00,   0.00,   0.00,   0.00,    NaN, 4.01, 0.00, 0.00, 0.00, 0.00, 1, 1, 11,  32.9395109,-106.9114318,  1394.0, 2022,  6, 24, 15, 17, 16,        0,        0,   0,   0,   1.4,   0.8,   1.1,  0, 31, 31,  0,  0, 32,  0,  0,  0,  0, 32, 36, 31, 27,  0,  0, 35,  0, 31, 29,  0,  0,  0, 27,  0,  0,  0,  0,  0, 31,  0,  0
6, 6583, 3,VE3LIC,    -0.24, 3,   boost,   -0.98,  86337.00, 1329.80,    0.00,     NaN, 33.4, 4.00, 3.98, 3.98,   0.00,   0.00,   0.00,  64.15,  64.46,   0.00,   0.00,   0.00,   0.00,    NaN, 4.01, 0.00, 0.00, 0.00, 0.00, 1, 1, 11,  32.9395109,-106.9114318,  1394.0, 2022,  6, 24, 15, 17, 16,        0,        0,   0,   0,   1.4,   0.8,   1.1,  0, 31, 31,  0,  0, 32,  0,  0,  0,  0, 32, 36, 31, 27,  0,  0, 35,  0, 31, 29,  0,  0,  0, 27,  0,  0,  0,  0,  0, 31,  0,  0
6, 6583, 3,VE3LIC,    -0.23, 3,   boost,   -0.49,  86334.00, 1330.09,    0.28,     NaN, 33.4, 4.00, 3.98, 3.98,   0.00,   0.00,   0.00,  64.15,  64.46,   0.00,   0.00,   0.00,   0.00,    NaN, 4.01, 0.00, 0.00, 0.00, 0.00, 1, 1, 11,  32.9395109,-106.9114318,  1394.0, 2022,  6, 24, 15, 17, 16,        0,        0,   0,   0,   1.4,   0.8,   1.1,  0, 31, 31,  0,  0, 32,  0,  0,  0,  0, 32, 36, 31, 27,  0,  0, 35,  0, 31, 29,  0,  0,  0, 27,  0,  0,  0,  0,  0, 31,  0,  0
6, 6583, 3,VE3LIC,    -0.22, 3,   boost,   -1.47,  86340.00, 1329.52,   -0.28,     NaN, 33.4, 4.00, 3.98, 3.98,   0.00,   0.00,   0.00,  64.15,  64.46,   0.00,   0.00,   0.00,   0.00,    NaN, 4.01, 0.00, 0.00, 0.00, 0.00, 1, 1, 11,  32.9395109,-106.9114318,  1394.0, 2022,  6, 24, 15, 17, 16,        0,        0,   0,   0,   1.4,   0.8,   1.1,  0, 31, 31,  0,  0, 32,  0,  0,  0,  0, 32, 36, 31, 27,  0,  0, 35,  0, 31, 29,  0,  0,  0, 27,  0,  0,  0,  0,  0, 31,  0,  0
6, 6583, 3,VE3LIC,    -0.21, 3,   boost,   -0.49,  86333.00, 1330.18,    0.38,     NaN, 33.4, 4.00, 3.98, 3.98,   0.00,   0.00,   0.00,  64.15,  64.46,   0.00,   0.00,   0.00,   0.00,    NaN, 4.01, 0.00, 0.00, 0.00, 0.00, 1, 1, 11,  32.9395109,-106.9114318,  1394.0, 2022,  6, 24, 15, 17, 16,        0,        0,   0,   0,   1.4,   0.8,   1.1,  0, 31, 31,  0,  0, 32,  0,  0,  0,  0, 32, 36, 31, 27,  0,  0, 35,  0, 31, 29,  0,  0,  0, 27,  0,  0,  0,  0,  0, 31,  0,  0
6, 6583, 3,VE3LIC,    -0.20, 3,   boost,   -0.98,  86338.00, 1329.71,   -0.09,     NaN, 33.5, 4.00, 3.98, 3.98,   0.00,   0.00,   0.00,  64.15,  64.46,   0.00,   0.00,   0.00,   0.00,    NaN, 4.01, 0.00, 0.00, 0.00, 0.00, 1, 1, 11,  32.9395109,-106.9114318,  1394.0, 2022,  6, 24, 15, 17, 16,        0,        0,   0,   0,   1.4,   0.8,   1.1,  0, 31, 31,  0,  0, 32,  0,  0,  0,  0, 32, 36, 31, 27,  0,  0, 35,  0, 31, 29,  0,  0,  0, 27,  0,  0,  0,  0,  0, 31,  0,  0
6, 6583, 3,VE3LIC,    -0.19, 3,   boost,    1.96,  86342.00, 1329.33,   -0.47,     NaN, 33.4, 4.00, 3.98, 3.98,   0.00,   0.00,   0.00,  64.15,  64.46,   0.00,   0.00,   0.00,   0.00,    NaN, 4.01, 0.00, 0.00, 0.00, 0.00, 1, 1, 11,  32.9395109,-106.9114318,  1394.0, 2022,  6, 24, 15, 17, 16,        0,        0,   0,   0,   1.4,   0.8,   1.1,  0, 31, 31,  0,  0, 32,  0,  0,  0,  0, 32, 36, 31, 27,  0,  0, 35,  0, 31, 29,  0,  0,  0, 27,  0,  0,  0,  0,  0, 31,  0,  0
6, 6583, 3,VE3LIC,    -0.18, 3,   boost,   -0.00,  86345.00, 1329.04,   -0.76,     NaN, 33.4, 4.00, 3.98, 3.98,   0.00,   0.00,   0.00,  64.15,  64.46,   0.00,   0.00,   0.00,   0.00,    NaN, 4.01, 0.00, 0.00, 0.00, 0.00, 1, 1, 11,  32.9395109,-106.9114318,  1394.0, 2022,  6, 24, 15, 17, 16,        0,        0,   0,   0,   1.4,   0.8,   1.1,  0, 31, 31,  0,  0, 32,  0,  0,  0,  0, 32, 36, 31, 27,  0,  0, 35,  0, 31, 29,  0,  0,  0, 27,  0,  0,  0,  0,  0, 31,  0,  0
6, 6583, 3,VE3LIC,    -0.17, 3,   boost,    0.49,  86335.00, 1329.99,    0.19,     NaN, 33.4, 4.00, 3.98, 3.98,   0.00,   0.00,   0.00,  64.15,  64.46,   0.00,   0.00,   0.00,   0.00,    NaN, 4.01, 0.00, 0.00, 0.00, 0.00, 1, 1, 11,  32.9395109,-106.9114318,  1394.0, 2022,  6, 24, 15, 17, 16,        0,        0,   0,   0,   1.4,   0.8,   1.1,  0, 31, 31,  0,  0, 32,  0,  0,  0,  0, 32, 36, 31, 27,  0,  0, 35,  0, 31, 29,  0,  0,  0, 27,  0,  0,  0,  0,  0, 31,  0,  0
6, 6583, 3,VE3LIC,    -0.16, 3,   boost,    2.94,  86332.00, 1330.27,    0.47,     NaN, 33.5, 4.00, 3.98, 3.98,   0.00,   0.00,   0.00,  64.15,  64.46,   0.00,   0.00,   0.00,   0.00,    NaN, 4.01, 0.00, 0.00, 0.00, 0.00, 1, 1, 11,  32.9395109,-106.9114318,  1394.0, 2022,  6, 24, 15, 17, 16,        0,        0,   0,   0,   1.4,   0.8,   1.1,  0, 31, 31,  0,  0, 32,  0,  0,  0,  0, 32, 36, 31, 27,  0,  0, 35,  0, 31, 29,  0,  0,  0, 27,  0,  0,  0,  0,  0, 31,  0,  0
6, 6583, 3,VE3LIC,    -0.15, 3,   boost,   -2.94,  86345.00, 1329.04,   -0.76,     NaN, 33.4, 4.00, 3.98, 3.98,   0.00,   0.00,   0.00,  64.15,  64.46,   0.00,   0.00,   0.00,   0.00,    NaN, 4.01, 0.00, 0.00, 0.00, 0.00, 1, 1, 11,  32.9395109,-106.9114318,  1394.0, 2022,  6, 24, 15, 17, 16,        0,        0,   0,   0,   1.4,   0.8,   1.1,  0, 31, 31,  0,  0, 32,  0,  0,  0,  0, 32, 36, 31, 27,  0,  0, 35,  0, 31, 29,  0,  0,  0, 27,  0,  0,  0,  0,  0, 31,  0,  0
6, 6583, 3,VE3LIC,    -0.14, 3,   boost,    0.49,  86343.00, 1329.23,   -0.57,     NaN, 33.4, 4.00, 3.98, 3.98,   0.00,   0.00,   0.00,  64.15,  64.46,   0.00,   0.00,   0.00,   0.00,    NaN, 4.01, 0.00, 0.00, 0.00, 0.00, 1, 1, 11,  32.9395109,-106.9114318,  1394.0, 2022,  6, 24, 15, 17, 16,        0,        0,   0,   0,   1.4,   0.8,   1.1,  0, 31, 31,  0,  0, 32,  0,  0,  0,  0, 32, 36, 31, 27,  0,  0, 35,  0, 31, 29,  0,  0,  0, 27,  0,  0,  0,  0,  0, 31,  0,  0
6, 6583, 3,VE3LIC,    -0.13, 3,   boost,   -0.49,  86331.00, 1330.37,    0.57,     NaN, 33.5, 4.00, 3.98, 3.98,   0.00,   0.00,   0.00,  64.15,  64.46,   0.00,   0.00,   0.00,   0.00,    NaN, 4.01, 0.00, 0.00, 0.00, 0.00, 1, 1, 11,  32.9395109,-106.9114318,  1394.0, 2022,  6, 24, 15, 17, 16,        0,        0,   0,   0,   1.4,   0.8,   1.1,  0, 31, 31,  0,  0, 32,  0,  0,  0,  0, 32, 36, 31, 27,  0,  0, 35,  0, 31, 29,  0,  0,  0, 27,  0,  0,  0,  0,  0, 31,  0,  0
6, 6583, 3,VE3LIC,    -0.12, 3,   boost,   -1.47,  86346.00, 1328.95,   -0.85,     NaN, 33.4, 4.00, 3.98, 3.98,   0.00,   0.00,   0.00,  64.15,  64.46,   0.00,   0.00,   0.00,   0.00,    NaN, 4.01, 0.00, 0.00, 0.00, 0.00, 1, 1, 11,  32.9395109,-106.9114318,  1394.0, 2022,  6, 24, 15, 17, 16,        0,        0,   0,   0,   1.4,   0.8,   1.1,  0, 31, 31,  0,  0, 32,  0,  0,  0,  0, 32, 36, 31, 27,  0,  0, 35,  0, 31, 29,  0,  0,  0, 27,  0,  0,  0,  0,  0, 31,  0,  0
6, 6583, 3,VE3LIC,    -0.11, 3,   boost,    2.94,  86334.00, 1330.09,    0.28,     NaN, 33.4, 4.00, 3.98, 3.98,   0.00,   0.00,   0.00,  64.15,  64.46,   0.00,   0.00,   0.00,   0.00,    NaN, 4.01, 0.00, 0.00, 0.00, 0.00, 1, 1, 11,  32.9395109,-106.9114318,  1394.0, 2022,  6, 24, 15, 17, 16,        0,        0,   0,   0,   1.4,   0.8,   1.1,  0, 31, 31,  0,  0, 32,  0,  0,  0,  0, 32, 36, 31, 27,  0,  0, 35,  0, 31, 29,  0,  0,  0, 27,  0,  0,  0,  0,  0, 31,  0,  0
6, 6583, 3,VE3LIC,    -0.10, 3,   boost,   38.25,  86485.00, 1315.79,  -14.02,     NaN, 33.5, 4.00, 3.98, 3.98,   0.00,   0.00,   0.00,  64.15,  64.46,   0.00,   0.00,   0.00,   0.00,    NaN, 4.01, 0.00, 0.00, 0.00, 0.00, 1, 1, 11,  32.9395109,-106.9114318,  1394.0, 2022,  6, 24, 15, 17, 16,        0,        0,   0,   0,   1.4,   0.8,   1.1,  0, 31, 31,  0,  0, 32,  0,  0,  0,  0, 32, 36, 31, 27,  0,  0, 35,  0, 31, 29,  0,  0,  0, 27,  0,  0,  0,  0,  0, 31,  0,  0
6, 6583, 3,VE3LIC,    -0.09, 3,   boost,   69.63,  86381.00, 1325.63,   -4.17,     NaN, 33.4, 4.00, 3.98, 3.98,   0.00,   0.00,   0.00,  64.15,  64.46,   0.00,   0.00,   0.00,   0.00,    NaN, 4.01, 0.00, 0.00, 0.00, 0.00, 1, 1, 11,  32.9395109,-106.9114318,  1394.0, 2022,  6, 24, 15, 17, 16,        0,        0,   0,   0,   1.4,   0.8,   1.1,  0, 31, 31,  0,  0, 32,  0,  0,  0,  0, 32, 36, 31, 27,  0,  0, 35,  0, 31, 29,  0,  0,  0, 27,  0,  0,  0,  0,  0, 31,  0,  0
6, 6583, 3,VE3LIC,    -0.08, 3,   boost,   87.28,  86345.00, 1329.04,   -0.76,     NaN, 33.4, 4.00, 3.98, 3.98,   0.00,   0.00,   0.00,  64.15,  64.46,   0.00,   0.00,   0.00,   0.00,    NaN, 4.01, 0.00, 0.00, 0.00, 0.00, 1, 1, 11,  32.9395109,-106.9114318,  1394.0, 2022,  6, 24, 15, 17, 16,        0,        0,   0,   0,   1.4,   0.8,   1.1,  0, 31, 31,  0,  0, 32,  0,  0,  0,  0, 32, 36, 31, 27,  0,  0, 35,  0, 31, 29,  0,  0,  0, 27,  0,  0,  0,  0,  0, 31,  0,  0
6, 6583, 3,VE3LIC,    -0.07, 3,   boost,   89.73,  86320.00, 1331.41,    1.61,     NaN, 33.4, 4.00, 3.98, 3.98,   0.00,   0.00,   0.00,  64.15,  64.46,   0.00,   0.00,   0.00,   0.00,    NaN, 4.01, 0.00, 0.00, 0.00, 0.00, 1, 1, 11,  32.9395109,-106.9114318,  1394.0, 2022,  6, 24, 15, 17, 16,        0,        0,   0,   0,   1.4,   0.8,   1.1,  0, 31, 31,  0,  0, 32,  0,  0,  0,  0, 32, 36, 31, 27,  0,  0, 35,  0, 31, 29,  0,  0,  0, 27,  0,  0,  0,  0,  0, 31,  0,  0
6, 6583, 3,VE3LIC,    -0.06, 3,   boost,   89.73,  86333.00, 1330.18,    0.38,     NaN, 33.4, 4.00, 3.98, 3.98,   0.00,   0.00,   0.00,  64.15,  64.46,   0.00,   0.00,   0.00,   0.00,    NaN, 4.01, 0.00, 0.00, 0.00, 0.00, 1, 1, 11,  32.9395109,-106.9114318,  1394.0, 2022,  6, 24, 15, 17, 16,        0,        0,   0,   0,   1.4,   0.8,   1.1,  0, 31, 31,  0,  0, 32,  0,  0,  0,  0, 32, 36, 31, 27,  0,  0, 35,  0, 31, 29,  0,  0,  0, 27,  0,  0,  0,  0,  0, 31,  0,  0
6, 6583, 3,VE3LIC,    -0.05, 3,   boost,  109.34,  86319.00, 1331.51,    1.71,     NaN, 33.4, 4.00, 3.98, 3.98,   0.00,   0.00,   0.00,  64.15,  64.46,   0.00,   0.00,   0.00,   0.00,    NaN, 4.01, 0.00, 0.00, 0.00, 0.00, 1, 1, 11,  32.9395109,-106.9114318,  1394.0, 2022,  6, 24, 15, 17, 16,        0,        0,   0,   0,   1.4,   0.8,   1.1,  0, 31, 31,  0,  0, 32,  0,  0,  0,  0, 32, 36, 31, 27,  0,  0, 35,  0, 31, 29,  0,  0,  0, 27,  0,  0,  0,  0,  0, 31,  0,  0
6, 6583, 3,VE3LIC,    -0.04, 3,   boost,   78.94,  86296.00, 1333.69,    3.89,     NaN, 33.5, 4.00, 3.98, 3.98,   0.00,   0.00,   0.00,  64.15,  64.46,   0.00,   0.00,   0.00,   0.00,    NaN, 4.01, 0.00, 0.00, 0.00, 0.00, 1, 1, 11,  32.9395109,-106.9114318,  1394.0, 2022,  6, 24, 15, 17, 16,        0,        0,   0,   0,   1.4,   0.8,   1.1,  0, 31, 31,  0,  0, 32,  0,  0,  0,  0, 32, 36, 31, 27,  0,  0, 35,  0, 31, 29,  0,  0,  0, 27,  0,  0,  0,  0,  0, 31,  0,  0
6, 6583, 3,VE3LIC,    -0.03, 3,   boost,   79.92,  86300.00, 1333.31,    3.51,     NaN, 33.4, 4.00, 3.98, 3.98,   0.00,   0.00,   0.00,  64.15,  64.46,   0.00,   0.00,   0.00,   0.00,    NaN, 4.01, 0.00, 0.00, 0.00, 0.00, 1, 1, 11,  32.9395109,-106.9114318,  1394.0, 2022,  6, 24, 15, 17, 16,        0,        0,   0,   0,   1.4,   0.8,   1.1,  0, 31, 31,  0,  0, 32,  0,  0,  0,  0, 32, 36, 31, 27,  0,  0, 35,  0, 31, 29,  0,  0,  0, 27,  0,  0,  0,  0,  0, 31,  0,  0
6, 6583, 3,VE3LIC,    -0.02, 3,   boost,   76.49,  86287.00, 1334.54,    4.74,     NaN, 33.5, 4.00, 3.98, 3.98,   0.00,   0.00,   0.00,  64.15,  64.46,   0.00,   0.00,   0.00,   0.00,    NaN, 4.01, 0.00, 0.00, 0.00, 0.00, 1, 1, 11,  32.9395109,-106.9114318,  1394.0, 2022,  6, 24, 15, 17, 16,        0,        0,   0,   0,   1.4,   0.8,   1.1,  0, 31, 31,  0,  0, 32,  0,  0,  0,  0, 32, 36, 31, 27,  0,  0, 35,  0, 31, 29,  0,  0,  0, 27,  0,  0,  0,  0,  0, 31,  0,  0
6, 6583, 3,VE3LIC,    -0.01, 3,   boost,   78.94,  86307.00, 1332.64,    2.84,     NaN, 33.4, 4.00, 3.98, 3.98,   0.00,   0.00,   0.00,  64.15,  64.46,   0.00,   0.00,   0.00,   0.00,    NaN, 4.01, 0.00, 0.00, 0.00, 0.00, 1, 1, 11,  32.9395109,-106.9114318,  1394.0, 2022,  6, 24, 15, 17, 16,        0,        0,   0,   0,   1.4,   0.8,   1.1,  0, 31, 31,  0,  0, 32,  0,  0,  0,  0, 32, 36, 31, 27,  0,  0, 35,  0, 31, 29,  0,  0,  0, 27,  0,  0,  0,  0,  0, 31,  0,  0
6, 6583, 3,VE3LIC,     0.00, 3,   boost,   76.98,  86319.00, 1331.51,    1.71,     NaN, 33.4, 4.00, 3.98, 3.98,   0.00,   0.00,   0.00,  64.15,  64.46,   0.00,   0.00,   0.00,   0.00,    NaN, 4.01, 0.00, 0.00, 0.00, 0.00, 1, 1, 11,  32.9395109,-106.9114318,  1394.0, 2022,  6, 24, 15, 17, 16,        0,        0,   0,   0,   1.4,   0.8,   1.1,  0, 31, 31,  0,  0, 32,  0,  0,  0,  0, 32, 36, 31, 27,  0,  0, 35,  0, 31, 29,  0,  0,  0, 27,  0,  0,  0,  0,  0, 31,  0,  0
6, 6583, 3,VE3LIC,     0.00, 3,   boost,   76.98,  86319.00, 1331.51,    1.71,     NaN, 33.4, 4.00, 3.98, 3.98,   0.00,   0.00,   0.00,  64.15,  64.46,   0.00,   0.00,   0.00,   0.00,    NaN, 4.01, 0.00, 0.00, 0.00, 0.00, 1, 1, 11,  32.9395109,-106.9114318,  1394.0, 2022,  6, 24, 15, 17, 16,        0,        0,   0,   0,   1.4,   0.8,   1.1,  0, 31, 31,  0,  0, 32,  0,  0,  0,  0, 32, 36, 31, 27,  0,  0, 35,  0, 31, 29,  0,  0,  0, 27,  0,  0,  0,  0,  0, 31,  0,  0
6, 6583, 3,VE3LIC,     0.00, 3,   boost,   76.98,  86319.00, 1331.51,    1.71,     NaN, 33.4, 4.00, 3.98, 3.98,   0.00,   0.00,   0.00,  64.15,  64.46,   0.00,   0.00,   0.00,   0.00,    NaN, 4.01, 0.00, 0.00, 0.00, 0.00, 1, 1, 11,  32.9395109,-106.9114318,  1394.0, 2022,  6, 24, 15, 17, 16,        0,        0,   0,   0,   1.4,   0.8,   1.1,  0, 31, 31,  0,  0, 32,  0,  0,  0,  0, 32, 36, 31, 27,  0,  0, 35,  0, 31, 29,  0,  0,  0, 27,  0,  0,  0,  0,  0, 31,  0,  0
6, 6583, 3,VE3LIC,     0.00, 3,   boost,   76.98,  86319.00, 1331.51,    1.71,     NaN, 33.4, 4.00, 3.98, 3.98,   0.00,   0.00,   0.00,  64.15,  64.46,   0.00,   0.00,   0.00,   0.00,    NaN, 4.01, 0.00, 0.00, 0.00, 0.00, 1, 1, 11,  32.9395109,-106.9114318,  1394.0, 2022,  6, 24, 15, 17, 16,        0,        0,   0,   0,   1.4,   0.8,   1.1,  0, 31, 31,  0,  0, 32,  0,  0,  0,  0, 32, 36, 31, 27,  0,  0, 35,  0, 31, 29,  0,  0,  0, 27,  0,  0,  0,  0,  0, 31,  0,  0
6, 6583, 3,VE3LIC,     0.00, 3,   boost,   76.98,  86319.00, 1331.51,    1.71,     NaN, 33.4, 4.00, 3.98, 3.98,   0.00,   0.00,   0.00,  64.15,  64.46,   0.00,   0.00,   0.00,   0.00,    NaN, 4.01, 0.00, 0.00, 0.00, 0.00, 1, 1, 11,  32.9395109,-106.9114318,  1394.0, 2022,  6, 24, 15, 17, 16,        0,        0,   0,   0,   1.4,   0.8,   1.1,  0, 31, 31,  0,  0, 32,  0,  0,  0,  0, 32, 36, 31, 27,  0,  0, 35,  0, 31, 29,  0,  0,  0, 27,  0,  0,  0,  0,  0, 31,  0,  0
6, 6583, 3,VE3LIC,     0.00, 3,   boost,   76.98,  86319.00, 1331.51,    1.71,     NaN, 33.4, 4.00, 3.98, 3.98,   0.00,   0.00,   0.00,  64.15,  64.46,   0.00,   0.00,   0.00,   0.00,    NaN, 4.01, 0.00, 0.00, 0.00, 0.00, 1, 1, 11,  32.9395109,-106.9114318,  1394.0, 2022,  6, 24, 15, 17, 16,        0,        0,   0,   0,   1.4,   0.8,   1.1,  0, 31, 31,  0,  0, 32,  0,  0,  0,  0, 32, 36, 31, 27,  0,  0, 35,  0, 31, 29,  0,  0,  0, 27,  0,  0,  0,  0,  0, 31,  0,  0
6, 6583, 3,VE3LIC,     0.00, 3,   boost,   76.98,  86319.00, 1331.51,    1.71,     NaN, 33.4, 4.00, 3.98, 3.98,   0.00,   0.00,   0.00,  64.15,  64.46,   0.00,   0.00,   0.00,   0.00,    NaN, 4.01, 0.00, 0.00, 0.00, 0.00, 1, 1, 11,  32.9395109,-106.9114318,  1394.0, 2022,  6, 24, 15, 17, 16,        0,        0,   0,   0,   1.4,   0.8,   1.1,  0, 31, 31,  0,  0, 32,  0,  0,  0,  0, 32, 36, 31, 27,  0,  0, 35,  0, 31, 29,  0,  0,  0, 27,  0,  0,  0,  0,  0, 31,  0,  0
6, 6583, 3,VE3LIC,     0.00, 3,   boost,   76.98,  86319.00, 1331.51,    1.71,     NaN, 33.4, 4.00, 3.98, 3.98,   0.00,   0.00,   0.00,  64.15,  64.46,   0.00,   0.00,   0.00,   0.00,    NaN, 4.01, 0.00, 0.00, 0.00, 0.00, 1, 1, 11,  32.9395109,-106.9114318,  1394.0, 2022,  6, 24, 15, 17, 16,        0,        0,   0,   0,   1.4,   0.8,   1.1,  0, 31, 31,  0,  0, 32,  0,  0,  0,  0, 32, 36, 31, 27,  0,  0, 35,  0, 31, 29,  0,  0,  0, 27,  0,  0,  0,  0,  0, 31,  0,  0
6, 6583, 3,VE3LIC,     0.00, 3,   boost,   76.98,  86319.00, 1331.51,    1.71,     NaN, 33.4, 4.00, 3.98, 3.98,   0.00,   0.00,   0.00,  64.15,  64.46,   0.00,   0.00,   0.00,   0.00,    NaN, 4.01, 0.00, 0.00, 0.00, 0.00, 1, 1, 11,  32.9395109,-106.9114318,  1394.0, 2022,  6, 24, 15, 17, 16,        0,        0,   0,   0,   1.4,   0.8,   1.1,  0, 31, 31,  0,  0, 32,  0,  0,  0,  0, 32, 36, 31, 27,  0,  0, 35,  0, 31, 29,  0,  0,  0, 27,  0,  0,  0,  0,  0, 31,  0,  0
6, 6583, 3,VE3LIC,     0.00, 3,   boost,   76.98,  86319.00, 1331.51,    1.71,     NaN, 33.4, 4.00, 3.98, 3.98,   0.00,   0.00,   0.00,  64.15,  64.46,   0.00,   0.00,   0.00,   0.00,    NaN, 4.01, 0.00, 0.00, 0.00, 0.00, 1, 1, 11,  32.9395109,-106.9114318,  1394.0, 2022,  6, 24, 15, 17, 16,        0,        0,   0,   0,   1.4,   0.8,   1.1,  0, 31, 31,  0,  0, 32,  0,  0,  0,  0, 32, 36, 31, 27,  0,  0, 35,  0, 31, 29,  0,  0,  0, 27,  0,  0,  0,  0,  0, 31,  0,  0
6, 6583, 3,VE3LIC,     0.00, 3,   boost,   76.98,  86319.00, 1331.51,    1.71,     NaN, 33.4, 4.00, 3.98, 3.98,   0.00,   0.00,   0.00,  64.15,  64.46,   0.00,   0.00,   0.00,   0.00,    NaN, 4.01, 0.00, 0.00, 0.00, 0.00, 1, 1, 11,  32.9395109,-106.9114318,  1394.0, 2022,  6, 24, 15, 17, 16,        0,        0,   0,   0,   1.4,   0.8,   1.1,  0, 31, 31,  0,  0, 32,  0,  0,  0,  0, 32, 36, 31, 27,  0,  0, 35,  0, 31, 29,  0,  0,  0, 27,  0,  0,  0,  0,  0, 31,  0,  0
6, 6583, 3,VE3LIC,     0.00, 3,   boost,   76.98,  86319.00, 1331.51,    1.71,     NaN, 33.4, 4.00, 3.98, 3.98,   0.00,   0.00,   0.00,  64.15,  64.46,   0.00,   0.00,   0.00,   0.00,    NaN, 4.01, 0.00, 0.00, 0.00, 0.00, 1, 1, 11,  32.9395109,-106.9114318,  1394.0, 2022,  6, 24, 15, 17, 16,        0,        0,   0,   0,   1.4,   0.8,   1.1,  0, 31, 31,  0,  0, 32,  0,  0,  0,  0, 32, 36, 31, 27,  0,  0, 35,  0, 31, 29,  0,  0,  0, 27,  0,  0,  0,  0,  0, 31,  0,  0
6, 6583, 3,VE3LIC,     0.00, 3,   boost,   76.98,  86319.00, 1331.51,    1.71,     NaN, 33.4, 4.00, 3.98, 3.98,   0.00,   0.00,   0.00,  64.15,  64.46,   0.00,   0.00,   0.00,   0.00,    NaN, 4.01, 0.00, 0.00, 0.00, 0.00, 1, 1, 11,  32.9395109,-106.9114318,  1394.0, 2022,  6, 24, 15, 17, 16,        0,        0,   0,   0,   1.4,   0.8,   1.1,  0, 31, 31,  0,  0, 32,  0,  0,  0,  0, 32, 36, 31, 27,  0,  0, 35,  0, 31, 29,  0,  0,  0, 27,  0,  0,  0,  0,  0, 31,  0,  0
6, 6583, 3,VE3LIC,     0.00, 3,   boost,   76.98,  86319.00, 1331.51,    1.71,     NaN, 33.4, 4.00, 3.98, 3.98,   0.00,   0.00,   0.00,  64.15,  64.46,   0.00,   0.00,   0.00,   0.00,    NaN, 4.01, 0.00, 0.00, 0.00, 0.00, 1, 1, 11,  32.9395109,-106.9114318,  1394.0, 2022,  6, 24, 15, 17, 16,        0,        0,   0,   0,   1.4,   0.8,   1.1,  0, 31, 31,  0,  0, 32,  0,  0,  0,  0, 32, 36, 31, 27,  0,  0, 35,  0, 31, 29,  0,  0,  0, 27,  0,  0,  0,  0,  0, 31,  0,  0
6, 6583, 3,VE3LIC,     0.00, 3,   boost,   76.98,  86319.00, 1331.51,    1.71,     NaN, 33.4, 4.00, 3.98, 3.98,   0.00,   0.00,   0.00,  64.15,  64.46,   0.00,   0.00,   0.00,   0.00,    NaN, 4.01, 0.00, 0.00, 0.00, 0.00, 1, 1, 11,  32.9395109,-106.9114318,  1394.0, 2022,  6, 24, 15, 17, 16,        0,        0,   0,   0,   1.4,   0.8,   1.1,  0, 31, 31,  0,  0, 32,  0,  0,  0,  0, 32, 36, 31, 27,  0,  0, 35,  0, 31, 29,  0,  0,  0, 27,  0,  0,  0,  0,  0, 31,  0,  0
6, 6583, 3,VE3LIC,     0.00, 3,   boost,   76.98,  86319.00, 1331.51,    1.71,     NaN, 33.4, 4.00, 3.98, 3.98,   0.00,   0.00,   0.00,  64.15,  64.46,   0.00,   0.00,   0.00,   0.00,    NaN, 4.01, 0.00, 0.00, 0.00, 0.00, 1, 1, 11,  32.9395109,-106.9114318,  1394.0, 2022,  6, 24, 15, 17, 16,        0,        0,   0,   0,   1.4,   0.8,   1.1,  0, 31, 31,  0,  0, 32,  0,  0,  0,  0, 32, 36, 31, 27,  0,  0, 35,  0, 31, 29,  0,  0,  0, 27,  0,  0,  0,  0,  0, 31,  0,  0
6, 6583, 3,VE3LIC,     0.00, 3,   boost,   76.98,  86319.00, 1331.51,    1.71,     NaN, 33.4, 4.00, 3.98, 3.98,   0.00,   0.00,   0.00,  64.15,  64.46,   0.00,   0.00,   0.00,   0.00,    NaN, 4.01, 0.00, 0.00, 0.00, 0.00, 1, 1, 11,  32.9395109,-106.9114318,  1394.0, 2022,  6, 24, 15, 17, 16,        0,        0,   0,   0,   1.4,   0.8,   1.1,  0, 31, 31,  0,  0, 32,  0,  0,  0,  0, 32, 36, 31, 27,  0,  0, 35,  0, 31, 29,  0,  0,  0, 27,  0,  0,  0,  0,  0, 31,  0,  0
6, 6583, 3,VE3LIC,     0.00, 3,   boost,   76.98,  86319.00, 1331.51,    1.71,     NaN, 33.4, 4.00, 3.98, 3.98,   0.00,   0.00,   0.00,  64.15,  64.46,   0.00,   0.00,   0.00,   0.00,    NaN, 4.01, 0.00, 0.00, 0.00, 0.00, 1, 1, 11,  32.9395109,-106.9114318,  1394.0, 2022,  6, 24, 15, 17, 16,        0,        0,   0,   0,   1.4,   0.8,   1.1,  0, 31, 31,  0,  0, 32,  0,  0,  0,  0, 32, 36, 31, 27,  0,  0, 35,  0, 31, 29,  0,  0,  0, 27,  0,  0,  0,  0,  0, 31,  0,  0
6, 6583, 3,VE3LIC,     0.00, 3,   boost,   76.98,  86319.00, 1331.51,    1.71,     NaN, 33.4, 4.00, 3.98, 3.98,   0.00,   0.00,   0.00,  64.15,  64.46,   0.00,   0.00,   0.00,   0.00,    NaN, 4.01, 0.00, 0.00, 0.00, 0.00, 1, 1, 11,  32.9395109,-106.9114318,  1394.0, 2022,  6, 24, 15, 17, 16,        0,        0,   0,   0,   1.4,   0.8,   1.1,  0, 31, 31,  0,  0, 32,  0,  0,  0,  0, 32, 36, 31, 27,  0,  0, 35,  0, 31, 29,  0,  0,  0, 27,  0,  0,  0,  0,  0, 31,  0,  0
6, 6583, 3,VE3LIC,     0.00, 3,   boost,   76.98,  86319.00, 1331.51,    1.71,     NaN, 33.4, 4.00, 3.98, 3.98,   0.00,   0.00,   0.00,  64.15,  64.46,   0.00,   0.00,   0.00,   0.00,    NaN, 4.01, 0.00, 0.00, 0.00, 0.00, 1, 1, 11,  32.9395109,-106.9114318,  1394.0, 2022,  6, 24, 15, 17, 16,        0,        0,   0,   0,   1.4,   0.8,   1.1,  0, 31, 31,  0,  0, 32,  0,  0,  0,  0, 32, 36, 31, 27,  0,  0, 35,  0, 31, 29,  0,  0,  0, 27,  0,  0,  0,  0,  0, 31,  0,  0
6, 6583, 3,VE3LIC,     0.00, 3,   boost,   76.98,  86319.00, 1331.51,    1.71,     NaN, 33.4, 4.00, 3.98, 3.98,   0.00,   0.00,   0.00,  64.15,  64.46,   0.00,   0.00,   0.00,   0.00,    NaN, 4.01, 0.00, 0.00, 0.00, 0.00, 1, 1, 11,  32.9395109,-106.9114318,  1394.0, 2022,  6, 24, 15, 17, 16,        0,        0,   0,   0,   1.4,   0.8,   1.1,  0, 31, 31,  0,  0, 32,  0,  0,  0,  0, 32, 36, 31, 27,  0,  0, 35,  0, 31, 29,  0,  0,  0, 27,  0,  0,  0,  0,  0, 31,  0,  0
6, 6583, 3,VE3LIC,     0.00, 3,   boost,   76.98,  86319.00, 1331.51,    1.71,     NaN, 33.4, 4.00, 3.98, 3.98,   0.00,   0.00,   0.00,  64.15,  64.46,   0.00,   0.00,   0.00,   0.00,    NaN, 4.01, 0.00, 0.00, 0.00, 0.00, 1, 1, 11,  32.9395109,-106.9114318,  1394.0, 2022,  6, 24, 15, 17, 16,        0,        0,   0,   0,   1.4,   0.8,   1.1,  0, 31, 31,  0,  0, 32,  0,  0,  0,  0, 32, 36, 31, 27,  0,  0, 35,  0, 31, 29,  0,  0,  0, 27,  0,  0,  0,  0,  0, 31,  0,  0
6, 6583, 3,VE3LIC,     0.00, 3,   boost,   76.98,  86319.00, 1331.51,    1.71,     NaN, 33.4, 4.00, 3.98, 3.98,   0.00,   0.00,   0.00,  64.15,  64.46,   0.00,   0.00,   0.00,   0.00,    NaN, 4.01, 0.00, 0.00, 0.00, 0.00, 1, 1, 11,  32.9395109,-106.9114318,  1394.0, 2022,  6, 24, 15, 17, 16,        0,        0,   0,   0,   1.4,   0.8,   1.1,  0, 31, 31,  0,  0, 32,  0,  0,  0,  0, 32, 36, 31, 27,  0,  0, 35,  0, 31, 29,  0,  0,  0, 27,  0,  0,  0,  0,  0, 31,  0,  0
6, 6583, 3,VE3LIC,     0.00, 3,   boost,   76.98,  86319.00, 1331.51,    1.71,     NaN, 33.4, 4.00, 3.98, 3.98,   0.00,   0.00,   0.00,  64.15,  64.46,   0.00,   0.00,   0.00,   0.00,    NaN, 4.01, 0.00, 0.00, 0.00, 0.00, 1, 1, 11,  32.9395109,-106.9114318,  1394.0, 2022,  6, 24, 15, 17, 16,        0,        0,   0,   0,   1.4,   0.8,   1.1,  0, 31, 31,  0,  0, 32,  0,  0,  0,  0, 32, 36, 31, 27,  0,  0, 35,  0, 31, 29,  0,  0,  0, 27,  0,  0,  0,  0,  0, 31,  0,  0
6, 6583, 3,VE3LIC,     0.00, 3,   boost,   76.98,  86319.00, 1331.51,    1.71,     NaN, 33.4, 4.00, 3.98, 3.98,   0.00,   0.00,   0.00,  64.15,  64.46,   0.00,   0.00,   0.00,   0.00,    NaN, 4.01, 0.00, 0.00, 0.00, 0.00, 1, 1, 11,  32.9395109,-106.9114318,  1394.0, 2022,  6, 24, 15, 17, 16,        0,        0,   0,   0,   1.4,   0.8,   1.1,  0, 31, 31,  0,  0, 32,  0,  0,  0,  0, 32, 36, 31, 27,  0,  0, 35,  0, 31, 29,  0,  0,  0, 27,  0,  0,  0,  0,  0, 31,  0,  0
6, 6583, 3,VE3LIC,     0.00, 3,   boost,   76.98,  86319.00, 1331.51,    1.71,     NaN, 33.4, 4.00, 3.98, 3.98,   0.00,   0.00,   0.00,  64.15,  64.46,   0.00,   0.00,   0.00,   0.00,    NaN, 4.01, 0.00, 0.00, 0.00, 0.00, 1, 1, 11,  32.9395109,-106.9114318,  1394.0, 2022,  6, 24, 15, 17, 16,        0,        0,   0,   0,   1.4,   0.8,   1.1,  0, 31, 31,  0,  0, 32,  0,  0,  0,  0, 32, 36, 31, 27,  0,  0, 35,  0, 31, 29,  0,  0,  0, 27,  0,  0,  0,  0,  0, 31,  0,  0
6, 6583, 3,VE3LIC,     0.00, 3,   boost,   76.98,  86319.00, 1331.51,    1.71,     NaN, 33.4, 4.00, 3.98, 3.98,   0.00,   0.00,   0.00,  64.15,  64.46,   0.00,   0.00,   0.00,   0.00,    NaN, 4.01, 0.00, 0.00, 0.00, 0.00, 1, 1, 11,  32.9395109,-106.9114318,  1394.0, 2022,  6, 24, 15, 17, 16,        0,        0,   0,   0,   1.4,   0.8,   1.1,  0, 31, 31,  0,  0, 32,  0,  0,  0,  0, 32, 36, 31, 27,  0,  0, 35,  0, 31, 29,  0,  0,  0, 27,  0,  0,  0,  0,  0, 31,  0,  0
6, 6583, 3,VE3LIC,     0.00, 3,   boost,   76.98,  86319.00, 1331.51,    1.71,     NaN, 33.4, 4.00, 3.98, 3.98,   0.00,   0.00,   0.00,  64.15,  64.46,   0.00,   0.00,   0.00,   0.00,    NaN, 4.01, 0.00, 0.00, 0.00, 0.00, 1, 1, 11,  32.9395109,-106.9114318,  1394.0, 2022,  6, 24, 15, 17, 16,        0,        0,   0,   0,   1.4,   0.8,   1.1,  0, 31, 31,  0,  0, 32,  0,  0,  0,  0, 32, 36, 31, 27,  0,  0, 35,  0, 31, 29,  0,  0,  0, 27,  0,  0,  0,  0,  0, 31,  0,  0
6, 6583, 3,VE3LIC,     0.00, 3,   boost,   76.98,  86319.00, 1331.51,    1.71,     NaN, 33.4, 4.00, 3.98, 3.98,   0.00,   0.00,   0.00,  64.15,  64.46,   0.00,   0.00,   0.00,   0.00,    NaN, 4.01, 0.00, 0.00, 0.00, 0.00, 1, 1, 11,  32.9395109,-106.9114318,  1394.0, 2022,  6, 24, 15, 17, 16,        0,        0,   0,   0,   1.4,   0.8,   1.1,  0, 31, 31,  0,  0, 32,  0,  0,  0,  0, 32, 36, 31, 27,  0,  0, 35,  0, 31, 29,  0,  0,  0, 27,  0,  0,  0,  0,  0, 31,  0,  0
6, 6583, 3,VE3LIC,     0.00, 3,   boost,   76.98,  86319.00, 1331.51,    1.71,     NaN, 33.4, 4.00, 3.98, 3.98,   0.00,   0.00,   0.00,  64.15,  64.46,   0.00,   0.00,   0.00,   0.00,    NaN, 4.01, 0.00, 0.00, 0.00, 0.00, 1, 1, 11,  32.9395109,-106.9114318,  1394.0, 2022,  6, 24, 15, 17, 16,        0,        0,   0,   0,   1.4,   0.8,   1.1,  0, 31, 31,  0,  0, 32,  0,  0,  0,  0, 32, 36, 31, 27,  0,  0, 35,  0, 31, 29,  0,  0,  0, 27,  0,  0,  0,  0,  0, 31,  0,  0
6, 6583, 3,VE3LIC,     0.00, 3,   boost,   76.98,  86319.00, 1331.51,    1.71,     NaN, 33.4, 4.00, 3.98, 3.98,   0.00,   0.00,   0.00,  64.15,  64.46,   0.00,   0.00,   0.00,   0.00,    NaN, 4.01, 0.00, 0.00, 0.00, 0.00, 1, 1, 11,  32.9395109,-106.9114318,  1394.0, 2022,  6, 24, 15, 17, 16,        0,        0,   0,   0,   1.4,   0.8,   1.1,  0, 31, 31,  0,  0, 32,  0,  0,  0,  0, 32, 36, 31, 27,  0,  0, 35,  0, 31, 29,  0,  0,  0, 27,  0,  0,  0,  0,  0, 31,  0,  0
6, 6583, 3,VE3LIC,     0.00, 3,   boost,   76.98,  86319.00, 1331.51,    1.71,     NaN, 33.4, 4.00, 3.98, 3.98,   0.00,   0.00,   0.00,  64.15,  64.46,   0.00,   0.00,   0.00,   0.00,    NaN, 4.01, 0.00, 0.00, 0.00, 0.00, 1, 1, 11,  32.9395109,-106.9114318,  1394.0, 2022,  6, 24, 15, 17, 16,        0,        0,   0,   0,   1.4,   0.8,   1.1,  0, 31, 31,  0,  0, 32,  0,  0,  0,  0, 32, 36, 31, 27,  0,  0, 35,  0, 31, 29,  0,  0,  0, 27,  0,  0,  0,  0,  0, 31,  0,  0
6, 6583, 3,VE3LIC,     0.00, 3,   boost,   76.98,  86319.00, 1331.51,    1.71,     NaN, 33.4, 4.00, 3.98, 3.98,   0.00,   0.00,   0.00,  64.15,  64.46,   0.00,   0.00,   0.00,   0.00,    NaN, 4.01, 0.00, 0.00, 0.00, 0.00, 1, 1, 11,  32.9395109,-106.9114318,  1394.0, 2022,  6, 24, 15, 17, 16,        0,        0,   0,   0,   1.4,   0.8,   1.1,  0, 31, 31,  0,  0, 32,  0,  0,  0,  0, 32, 36, 31, 27,  0,  0, 35,  0, 31, 29,  0,  0,  0, 27,  0,  0,  0,  0,  0, 31,  0,  0
6, 6583, 3,VE3LIC,     0.00, 3,   boost,   76.98,  86319.00, 1331.51,    1.71,     NaN, 33.4, 4.00, 3.98, 3.98,   0.00,   0.00,   0.00,  64.15,  64.46,   0.00,   0.00,   0.00,   0.00,    NaN, 4.01, 0.00, 0.00, 0.00, 0.00, 1, 1, 11,  32.9395109,-106.9114318,  1394.0, 2022,  6, 24, 15, 17, 16,        0,        0,   0,   0,   1.4,   0.8,   1.1,  0, 31, 31,  0,  0, 32,  0,  0,  0,  0, 32, 36, 31, 27,  0,  0, 35,  0, 31, 29,  0,  0,  0, 27,  0,  0,  0,  0,  0, 31,  0,  0
6, 6583, 3,VE3LIC,     0.00, 3,   boost,   76.98,  86319.00, 1331.51,    1.71,     NaN, 33.4, 4.00, 3.98, 3.98,   0.00,   0.00,   0.00,  64.15,  64.46,   0.00,   0.00,   0.00,   0.00,    NaN, 4.01, 0.00, 0.00, 0.00, 0.00, 1, 1, 11,  32.9395109,-106.9114318,  1394.0, 2022,  6, 24, 15, 17, 16,        0,        0,   0,   0,   1.4,   0.8,   1.1,  0, 31, 31,  0,  0, 32,  0,  0,  0,  0, 32, 36, 31, 27,  0,  0, 35,  0, 31, 29,  0,  0,  0, 27,  0,  0,  0,  0,  0, 31,  0,  0
6, 6583, 3,VE3LIC,     0.01, 3,   boost,   81.40,  86321.00, 1331.32,    1.52,     NaN, 33.4, 4.00, 3.98, 3.98,   0.00,   0.00,   0.00,  64.15,  64.46,   0.00,   0.00,   0.00,   0.00,    NaN, 4.01, 0.00, 0.00, 0.00, 0.00, 1, 1, 11,  32.9395109,-106.9114318,  1394.0, 2022,  6, 24, 15, 17, 16,        0,        0,   0,   0,   1.4,   0.8,   1.1,  0, 31, 31,  0,  0, 32,  0,  0,  0,  0, 32, 36, 31, 27,  0,  0, 35,  0, 31, 29,  0,  0,  0, 27,  0,  0,  0,  0,  0, 31,  0,  0
6, 6583, 3,VE3LIC,     0.01, 3,   boost,   81.40,  86321.00, 1331.32,    1.52,     NaN, 33.4, 4.00, 3.98, 3.98,   0.00,   0.00,   0.00,  64.15,  64.46,   0.00,   0.00,   0.00,   0.00,    NaN, 4.01, 0.00, 0.00, 0.00, 0.00, 1, 1, 11,  32.9395109,-106.9114318,  1394.0, 2022,  6, 24, 15, 17, 16,        0,        0,   0,   0,   1.4,   0.8,   1.1,  0, 31, 31,  0,  0, 32,  0,  0,  0,  0, 32, 36, 31, 27,  0,  0, 35,  0, 31, 29,  0,  0,  0, 27,  0,  0,  0,  0,  0, 31,  0,  0
6, 6583, 3,VE3LIC,     0.02, 3,   boost,   89.24,  86327.00, 1330.75,    0.95,     NaN, 33.5, 3.98, 3.97, 3.97,   0.00,   0.00,   0.00,  64.15,  64.46,   0.00,   0.00,   0.00,   0.00,    NaN, 3.99, 0.00, 0.00, 0.00, 0.00, 1, 1, 11,  32.9395109,-106.9114318,  1394.0, 2022,  6, 24, 15, 17, 16,        0,        0,   0,   0,   1.4,   0.8,   1.1,  0, 31, 31,  0,  0, 32,  0,  0,  0,  0, 32, 36, 31, 27,  0,  0, 35,  0, 31, 29,  0,  0,  0, 27,  0,  0,  0,  0,  0, 31,  0,  0
6, 6583, 3,VE3LIC,     0.02, 3,   boost,   89.24,  86327.00, 1330.75,    0.95,     NaN, 33.5, 3.98, 3.97, 3.97,   0.00,   0.00,   0.00,  64.15,  64.46,   0.00,   0.00,   0.00,   0.00,    NaN, 3.99, 0.00, 0.00, 0.00, 0.00, 1, 1, 11,  32.9395109,-106.9114318,  1394.0, 2022,  6, 24, 15, 17, 16,        0,        0,   0,   0,   1.4,   0.8,   1.1,  0, 31, 31,  0,  0, 32,  0,  0,  0,  0, 32, 36, 31, 27,  0,  0, 35,  0, 31, 29,  0,  0,  0, 27,  0,  0,  0,  0,  0, 31,  0,  0
6, 6583, 3,VE3LIC,     0.03, 3,   boost,   77.47,  86320.00, 1331.41,    1.61,     NaN, 33.4, 3.98, 3.97, 3.97,   0.00,   0.00,   0.00,  63.97,  64.15,   0.00,   0.00,   0.00,   0.00,    NaN, 3.99, 0.00, 0.00, 0.00, 0.00, 1, 1, 11,  32.9395109,-106.9114318,  1394.0, 2022,  6, 24, 15, 17, 16,        0,        0,   0,   0,   1.4,   0.8,   1.1,  0, 31, 31,  0,  0, 32,  0,  0,  0,  0, 32, 36, 31, 27,  0,  0, 35,  0, 31, 29,  0,  0,  0, 27,  0,  0,  0,  0,  0, 31,  0,  0
6, 6583, 3,VE3LIC,     0.04, 3,   boost,   79.43,  86324.00, 1331.03,    1.23,     NaN, 33.5, 3.98, 3.97, 3.97,   0.00,   0.00,   0.00,  63.97,  64.15,   0.00,   0.00,   0.00,   0.00,    NaN, 3.99, 0.00, 0.00, 0.00, 0.00, 1, 1, 11,  32.9395109,-106.9114318,  1394.0, 2022,  6, 24, 15, 17, 16,        0,        0,   0,   0,   1.4,   0.8,   1.1,  0, 31, 31,  0,  0, 32,  0,  0,  0,  0, 32, 36, 31, 27,  0,  0, 35,  0, 31, 29,  0,  0,  0, 27,  0,  0,  0,  0,  0, 31,  0,  0
6, 6583, 3,VE3LIC,     0.05, 3,   boost,   80.41,  86331.00, 1330.37,    0.57,     NaN, 33.4, 3.98, 3.97, 3.97,   0.00,   0.00,   0.00,  63.97,  64.15,   0.00,   0.00,   0.00,   0.00,    NaN, 3.99, 0.00, 0.00, 0.00, 0.00, 1, 1, 11,  32.9395109,-106.9114318,  1394.0, 2022,  6, 24, 15, 17, 16,        0,        0,   0,   0,   1.4,   0.8,   1.1,  0, 31, 31,  0,  0, 32,  0,  0,  0,  0, 32, 36, 31, 27,  0,  0, 35,  0, 31, 29,  0,  0,  0, 27,  0,  0,  0,  0,  0, 31,  0,  0
6, 6583, 3,VE3LIC,     0.06, 3,   boost,   80.90,  86312.00, 1332.17,    2.37,     NaN, 33.5, 3.98, 3.97, 3.97,   0.00,   0.00,   0.00,  63.97,  64.15,   0.00,   0.00,   0.00,   0.00,    NaN, 3.99, 0.00, 0.00, 0.00, 0.00, 1, 1, 11,  32.9395109,-106.9114318,  1394.0, 2022,  6, 24, 15, 17, 16,        0,        0,   0,   0,   1.4,   0.8,   1.1,  0, 31, 31,  0,  0, 32,  0,  0,  0,  0, 32, 36, 31, 27,  0,  0, 35,  0, 31, 29,  0,  0,  0, 27,  0,  0,  0,  0,  0, 31,  0,  0
6, 6583, 3,VE3LIC,     0.07, 3,   boost,   80.41,  86329.00, 1330.56,    0.76,     NaN, 33.5, 3.98, 3.97, 3.97,   0.00,   0.00,   0.00,  63.97,  64.15,   0.00,   0.00,   0.00,   0.00,    NaN, 3.99, 0.00, 0.00, 0.00, 0.00, 1, 1, 11,  32.9395109,-106.9114318,  1394.0, 2022,  6, 24, 15, 17, 16,        0,        0,   0,   0,   1.4,   0.8,   1.1,  0, 31, 31,  0,  0, 32,  0,  0,  0,  0, 32, 36, 31, 27,  0,  0, 35,  0, 31, 29,  0,  0,  0, 27,  0,  0,  0,  0,  0, 31,  0,  0
6, 6583, 3,VE3LIC,     0.08, 3,   boost,   76.98,  86327.00, 1330.75,    0.95,     NaN, 33.4, 3.98, 3.97, 3.97,   0.00,   0.00,   0.00,  63.97,  64.15,   0.00,   0.00,   0.00,   0.00,    NaN, 3.99, 0.00, 0.00, 0.00, 0.00, 1, 1, 11,  32.9395109,-106.9114318,  1394.0, 2022,  6, 24, 15, 17, 16,        0,        0,   0,   0,   1.4,   0.8,   1.1,  0, 31, 31,  0,  0, 32,  0,  0,  0,  0, 32, 36, 31, 27,  0,  0, 35,  0, 31, 29,  0,  0,  0, 27,  0,  0,  0,  0,  0, 31,  0,  0
6, 6583, 3,VE3LIC,     0.09, 3,   boost,   79.92,  86318.00, 1331.60,    1.80,     NaN, 33.4, 3.98, 3.97, 3.97,   0.00,   0.00,   0.00,  63.97,  64.15,   0.00,   0.00,   0.00,   0.00,    NaN, 3.99, 0.00, 0.00, 0.00, 0.00, 1, 1, 11,  32.9395109,-106.9114318,  1394.0, 2022,  6, 24, 15, 17, 16,        0,        0,   0,   0,   1.4,   0.8,   1.1,  0, 31, 31,  0,  0, 32,  0,  0,  0,  0, 32, 36, 31, 27,  0,  0, 35,  0, 31, 29,  0,  0,  0, 27,  0,  0,  0,  0,  0, 31,  0,  0
6, 6583, 3,VE3LIC,     0.10, 3,   boost,   78.45,  86347.00, 1328.85,   -0.95,     NaN, 33.4, 3.98, 3.97, 3.97,   0.00,   0.00,   0.00,  63.97,  64.15,   0.00,   0.00,   0.00,   0.00,    NaN, 3.99, 0.00, 0.00, 0.00, 0.00, 1, 1, 11,  32.9395109,-106.9114318,  1394.0, 2022,  6, 24, 15, 17, 16,        0,        0,   0,   0,   1.4,   0.8,   1.1,  0, 31, 31,  0,  0, 32,  0,  0,  0,  0, 32, 36, 31, 27,  0,  0, 35,  0, 31, 29,  0,  0,  0, 27,  0,  0,  0,  0,  0, 31,  0,  0
6, 6583, 3,VE3LIC,     0.11, 3,   boost,   75.02,  86311.00, 1332.27,    2.46,     NaN, 33.5, 3.98, 3.97, 3.97,   0.00,   0.00,   0.00,  63.97,  64.15,   0.00,   0.00,   0.00,   0.00,    NaN, 3.99, 0.00, 0.00, 0.00, 0.00, 1, 1, 11,  32.9395109,-106.9114318,  1394.0, 2022,  6, 24, 15, 17, 16,        0,        0,   0,   0,   1.4,   0.8,   1.1,  0, 31, 31,  0,  0, 32,  0,  0,  0,  0, 32, 36, 31, 27,  0,  0, 35,  0, 31, 29,  0,  0,  0, 27,  0,  0,  0,  0,  0, 31,  0,  0
6, 6583, 3,VE3LIC,     0.12, 3,   boost,   80.90,  86339.00, 1329.61,   -0.19,     NaN, 33.4, 3.98, 3.97, 3.97,   0.00,   0.00,   0.00,  63.97,  64.15,   0.00,   0.00,   0.00,   0.00,    NaN, 3.99, 0.00, 0.00, 0.00, 0.00, 1, 1, 11,  32.9395109,-106.9114318,  1394.0, 2022,  6, 24, 15, 17, 16,        0,        0,   0,   0,   1.4,   0.8,   1.1,  0, 31, 31,  0,  0, 32,  0,  0,  0,  0, 32, 36, 31, 27,  0,  0, 35,  0, 31, 29,  0,  0,  0, 27,  0,  0,  0,  0,  0, 31,  0,  0
6, 6583, 3,VE3LIC,     0.13, 3,   boost,   74.53,  86332.00, 1330.27,    0.47,     NaN, 33.5, 3.98, 3.97, 3.97,   0.00,   0.00,   0.00,  63.97,  64.15,   0.00,   0.00,   0.00,   0.00,    NaN, 3.99, 0.00, 0.00, 0.00, 0.00, 1, 1, 11,  32.9395109,-106.9114318,  1394.0, 2022,  6, 24, 15, 17, 16,        0,        0,   0,   0,   1.4,   0.8,   1.1,  0, 31, 31,  0,  0, 32,  0,  0,  0,  0, 32, 36, 31, 27,  0,  0, 35,  0, 31, 29,  0,  0,  0, 27,  0,  0,  0,  0,  0, 31,  0,  0
6, 6583, 3,VE3LIC,     0.14, 3,   boost,   74.53,  86300.00, 1333.31,    3.51,     NaN, 33.4, 3.98, 3.97, 3.97,   0.00,   0.00,   0.00,  63.97,  64.15,   0.00,   0.00,   0.00,   0.00,    NaN, 3.99, 0.00, 0.00, 0.00, 0.00, 1, 1, 11,  32.9395109,-106.9114318,  1394.0, 2022,  6, 24, 15, 17, 16,        0,        0,   0,   0,   1.4,   0.8,   1.1,  0, 31, 31,  0,  0, 32,  0,  0,  0,  0, 32, 36, 31, 27,  0,  0, 35,  0, 31, 29,  0,  0,  0, 27,  0,  0,  0,  0,  0, 31,  0,  0
6, 6583, 3,VE3LIC,     0.15, 3,   boost,   77.96,  86329.00, 1330.56,    0.76,     NaN, 33.5, 3.98, 3.97, 3.97,   0.00,   0.00,   0.00,  63.97,  64.15,   0.00,   0.00,   0.00,   0.00,    NaN, 3.99, 0.00, 0.00, 0.00, 0.00, 1, 1, 11,  32.9395109,-106.9114318,  1394.0, 2022,  6, 24, 15, 17, 16,        0,        0,   0,   0,   1.4,   0.8,   1.1,  0, 31, 31,  0,  0, 32,  0,  0,  0,  0, 32, 36, 31, 27,  0,  0, 35,  0, 31, 29,  0,  0,  0, 27,  0,  0,  0,  0,  0, 31,  0,  0
6, 6583, 3,VE3LIC,     0.16, 3,   boost,   79.43,  86310.00, 1332.36,    2.56,     NaN, 33.5, 3.98, 3.97, 3.97,   0.00,   0.00,   0.00,  63.97,  64.15,   0.00,   0.00,   0.00,   0.00,    NaN, 3.99, 0.00, 0.00, 0.00, 0.00, 1, 1, 11,  32.9395109,-106.9114318,  1394.0, 2022,  6, 24, 15, 17, 16,        0,        0,   0,   0,   1.4,   0.8,   1.1,  0, 31, 31,  0,  0, 32,  0,  0,  0,  0, 32, 36, 31, 27,  0,  0, 35,  0, 31, 29,  0,  0,  0, 27,  0,  0,  0,  0,  0, 31,  0,  0
6, 6583, 3,VE3LIC,     0.17, 3,   boost,   76.49,  86320.00, 1331.41,    1.61,     NaN, 33.4, 3.98, 3.97, 3.97,   0.00,   0.00,   0.00,  63.97,  64.15,   0.00,   0.00,   0.00,   0.00,    NaN, 3.99, 0.00, 0.00, 0.00, 0.00, 1, 1, 11,  32.9395109,-106.9114318,  1394.0, 2022,  6, 24, 15, 17, 16,        0,        0,   0,   0,   1.4,   0.8,   1.1,  0, 31, 31,  0,  0, 32,  0,  0,  0,  0, 32, 36, 31, 27,  0,  0, 35,  0, 31, 29,  0,  0,  0, 27,  0,  0,  0,  0,  0, 31,  0,  0
6, 6583, 3,VE3LIC,     0.18, 3,   boost,   75.02,  86338.00, 1329.71,   -0.09,     NaN, 33.5, 3.98, 3.97, 3.97,   0.00,   0.00,   0.00,  63.97,  64.15,   0.00,   0.00,   0.00,   0.00,    NaN, 3.99, 0.00, 0.00, 0.00, 0.00, 1, 1, 11,  32.9395109,-106.9114318,  1394.0, 2022,  6, 24, 15, 17, 16,        0,        0,   0,   0,   1.4,   0.8,   1.1,  0, 31, 31,  0,  0, 32,  0,  0,  0,  0, 32, 36, 31, 27,  0,  0, 35,  0, 31, 29,  0,  0,  0, 27,  0,  0,  0,  0,  0, 31,  0,  0
6, 6583, 3,VE3LIC,     0.19, 3,   boost,   77.96,  86298.00, 1333.50,    3.70,     NaN, 33.4, 3.98, 3.97, 3.97,   0.00,   0.00,   0.00,  63.97,  64.15,   0.00,   0.00,   0.00,   0.00,    NaN, 3.99, 0.00, 0.00, 0.00, 0.00, 1, 1, 11,  32.9395109,-106.9114318,  1394.0, 2022,  6, 24, 15, 17, 16,        0,        0,   0,   0,   1.4,   0.8,   1.1,  0, 31, 31,  0,  0, 32,  0,  0,  0,  0, 32, 36, 31, 27,  0,  0, 35,  0, 31, 29,  0,  0,  0, 27,  0,  0,  0,  0,  0, 31,  0,  0
6, 6583, 3,VE3LIC,     0.20, 3,   boost,   76.00,  86283.00, 1334.92,    5.12,     NaN, 33.4, 3.98, 3.97, 3.97,   0.00,   0.00,   0.00,  63.97,  64.15,   0.00,   0.00,   0.00,   0.00,    NaN, 3.99, 0.00, 0.00, 0.00, 0.00, 1, 1, 11,  32.9395109,-106.9114318,  1394.0, 2022,  6, 24, 15, 17, 16,        0,        0,   0,   0,   1.4,   0.8,   1.1,  0, 31, 31,  0,  0, 32,  0,  0,  0,  0, 32, 36, 31, 27,  0,  0, 35,  0, 31, 29,  0,  0,  0, 27,  0,  0,  0,  0,  0, 31,  0,  0
6, 6583, 3,VE3LIC,     0.21, 3,   boost,   81.89,  86308.00, 1332.55,    2.75,     NaN, 33.4, 3.98, 3.97, 3.97,   0.00,   0.00,   0.00,  63.97,  64.15,   0.00,   0.00,   0.00,   0.00,    NaN, 3.99, 0.00, 0.00, 0.00, 0.00, 1, 1, 11,  32.9395109,-106.9114318,  1394.0, 2022,  6, 24, 15, 17, 16,        0,        0,   0,   0,   1.4,   0.8,   1.1,  0, 31, 31,  0,  0, 32,  0,  0,  0,  0, 32, 36, 31, 27,  0,  0, 35,  0, 31, 29,  0,  0,  0, 27,  0,  0,  0,  0,  0, 31,  0,  0
6, 6583, 3,VE3LIC,     0.22, 3,   boost,   75.02,  86312.00, 1332.17,    2.37,     NaN, 33.4, 3.98, 3.97, 3.97,   0.00,   0.00,   0.00,  63.97,  64.15,   0.00,   0.00,   0.00,   0.00,    NaN, 3.99, 0.00, 0.00, 0.00, 0.00, 1, 1, 11,  32.9395109,-106.9114318,  1394.0, 2022,  6, 24, 15, 17, 16,        0,        0,   0,   0,   1.4,   0.8,   1.1,  0, 31, 31,  0,  0, 32,  0,  0,  0,  0, 32, 36, 31, 27,  0,  0, 35,  0, 31, 29,  0,  0,  0, 27,  0,  0,  0,  0,  0, 31,  0,  0
6, 6583, 3,VE3LIC,     0.23, 3,   boost,   77.96,  86288.00, 1334.45,    4.64,     NaN, 33.4, 3.98, 3.97, 3.97,   0.00,   0.00,   0.00,  63.97,  64.15,   0.00,   0.00,   0.00,   0.00,    NaN, 3.99, 0.00, 0.00, 0.00, 0.00, 1, 1, 11,  32.9395109,-106.9114318,  1394.0, 2022,  6, 24, 15, 17, 16,        0,        0,   0,   0,   1.4,   0.8,   1.1,  0, 31, 31,  0,  0, 32,  0,  0,  0,  0, 32, 36, 31, 27,  0,  0, 35,  0, 31, 29,  0,  0,  0, 27,  0,  0,  0,  0,  0, 31,  0,  0
6, 6583, 3,VE3LIC,     0.24, 3,   boost,   77.96,  86315.00, 1331.89,    2.08,     NaN, 33.5, 3.98, 3.97, 3.97,   0.00,   0.00,   0.00,  63.97,  64.15,   0.00,   0.00,   0.00,   0.00,    NaN, 3.99, 0.00, 0.00, 0.00, 0.00, 1, 1, 11,  32.9395109,-106.9114318,  1394.0, 2022,  6, 24, 15, 17, 16,        0,        0,   0,   0,   1.4,   0.8,   1.1,  0, 31, 31,  0,  0, 32,  0,  0,  0,  0, 32, 36, 31, 27,  0,  0, 35,  0, 31, 29,  0,  0,  0, 27,  0,  0,  0,  0,  0, 31,  0,  0
6, 6583, 3,VE3LIC,     0.25, 3,   boost,   77.47,  86303.00, 1333.02,    3.22,     NaN, 33.4, 3.98, 3.97, 3.97,   0.00,   0.00,   0.00,  63.97,  64.15,   0.00,   0.00,   0.00,   0.00,    NaN, 3.99, 0.00, 0.00, 0.00, 0.00, 1, 1, 11,  32.9395109,-106.9114318,  1394.0, 2022,  6, 24, 15, 17, 16,        0,        0,   0,   0,   1.4,   0.8,   1.1,  0, 31, 31,  0,  0, 32,  0,  0,  0,  0, 32, 36, 31, 27,  0,  0, 35,  0, 31, 29,  0,  0,  0, 27,  0,  0,  0,  0,  0, 31,  0,  0
6, 6583, 3,VE3LIC,     0.26, 3,   boost,   77.47,  86308.00, 1332.55,    2.75,     NaN, 33.5, 3.98, 3.97, 3.97,   0.00,   0.00,   0.00,  63.97,  64.15,   0.00,   0.00,   0.00,   0.00,    NaN, 3.99, 0.00, 0.00, 0.00, 0.00, 1, 1, 11,  32.9395109,-106.9114318,  1394.0, 2022,  6, 24, 15, 17, 16,        0,        0,   0,   0,   1.4,   0.8,   1.1,  0, 31, 31,  0,  0, 32,  0,  0,  0,  0, 32, 36, 31, 27,  0,  0, 35,  0, 31, 29,  0,  0,  0, 27,  0,  0,  0,  0,  0, 31,  0,  0
6, 6583, 3,VE3LIC,     0.27, 3,   boost,   78.94,  86288.00, 1334.45,    4.64,     NaN, 33.5, 3.98, 3.97, 3.97,   0.00,   0.00,   0.00,  63.97,  64.15,   0.00,   0.00,   0.00,   0.00,    NaN, 3.99, 0.00, 0.00, 0.00, 0.00, 1, 1, 11,  32.9395109,-106.9114318,  1394.0, 2022,  6, 24, 15, 17, 16,        0,        0,   0,   0,   1.4,   0.8,   1.1,  0, 31, 31,  0,  0, 32,  0,  0,  0,  0, 32, 36, 31, 27,  0,  0, 35,  0, 31, 29,  0,  0,  0, 27,  0,  0,  0,  0,  0, 31,  0,  0
6, 6583, 3,VE3LIC,     0.28, 3,   boost,   77.47,  86282.00, 1335.01,    5.21,     NaN, 33.5, 3.98, 3.97, 3.97,   0.00,   0.00,   0.00,  63.97,  64.15,   0.00,   0.00,   0.00,   0.00,    NaN, 3.99, 0.00, 0.00, 0.00, 0.00, 1, 1, 11,  32.9395109,-106.9114318,  1394.0, 2022,  6, 24, 15, 17, 16,        0,        0,   0,   0,   1.4,   0.8,   1.1,  0, 31, 31,  0,  0, 32,  0,  0,  0,  0, 32, 36, 31, 27,  0,  0, 35,  0, 31, 29,  0,  0,  0, 27,  0,  0,  0,  0,  0, 31,  0,  0
6, 6583, 3,VE3LIC,     0.29, 3,   boost,   76.49,  86309.00, 1332.45,    2.65,     NaN, 33.5, 3.98, 3.97, 3.97,   0.00,   0.00,   0.00,  63.97,  64.15,   0.00,   0.00,   0.00,   0.00,    NaN, 3.99, 0.00, 0.00, 0.00, 0.00, 1, 1, 11,  32.9395109,-106.9114318,  1394.0, 2022,  6, 24, 15, 17, 16,        0,        0,   0,   0,   1.4,   0.8,   1.1,  0, 31, 31,  0,  0, 32,  0,  0,  0,  0, 32, 36, 31, 27,  0,  0, 35,  0, 31, 29,  0,  0,  0, 27,  0,  0,  0,  0,  0, 31,  0,  0
6, 6583, 3,VE3LIC,     0.30, 3,   boost,   76.98,  86288.00, 1334.45,    4.64,     NaN, 33.5, 3.98, 3.97, 3.97,   0.00,   0.00,   0.00,  63.97,  64.15,   0.00,   0.00,   0.00,   0.00,    NaN, 3.99, 0.00, 0.00, 0.00, 0.00, 1, 1, 11,  32.9395109,-106.9114318,  1394.0, 2022,  6, 24, 15, 17, 16,        0,        0,   0,   0,   1.4,   0.8,   1.1,  0, 31, 31,  0,  0, 32,  0,  0,  0,  0, 32, 36, 31, 27,  0,  0, 35,  0, 31, 29,  0,  0,  0, 27,  0,  0,  0,  0,  0, 31,  0,  0
6, 6583, 3,VE3LIC,     0.31, 3,   boost,   77.47,  86279.00, 1335.30,    5.50,     NaN, 33.5, 3.98, 3.97, 3.97,   0.00,   0.00,   0.00,  63.97,  64.15,   0.00,   0.00,   0.00,   0.00,    NaN, 3.99, 0.00, 0.00, 0.00, 0.00, 1, 1, 11,  32.9395110,-106.9114310,  1394.0, 2022,  6, 24, 15, 17, 17,        0,        0,  82,   0,   1.4,   0.8,   1.1,  0, 31, 31,  0,  0, 32,  0,  0,  0,  0, 32, 36, 31, 27,  0,  0, 35,  0, 31, 29,  0,  0,  0, 26,  0,  0,  0,  0,  0, 31,  0,  0
6, 6583, 3,VE3LIC,     0.31, 3,   boost,   77.47,  86279.00, 1335.30,    5.50,     NaN, 33.5, 3.98, 3.97, 3.97,   0.00,   0.00,   0.00,  63.97,  64.15,   0.00,   0.00,   0.00,   0.00,    NaN, 3.99, 0.00, 0.00, 0.00, 0.00, 1, 1, 11,  32.9395110,-106.9114310,  1394.0, 2022,  6, 24, 15, 17, 17,        0,        0,  82,   0,   1.4,   0.8,   1.1,  0, 31, 31,  0,  0, 32,  0,  0,  0,  0, 32, 36, 31, 27,  0,  0, 35,  0, 31, 29,  0,  0,  0, 26,  0,  0,  0,  0,  0, 31,  0,  0
6, 6583, 3,VE3LIC,     0.31, 3,   boost,   77.47,  86279.00, 1335.30,    5.50,     NaN, 33.5, 3.98, 3.97, 3.97,   0.00,   0.00,   0.00,  63.97,  64.15,   0.00,   0.00,   0.00,   0.00,    NaN, 3.99, 0.00, 0.00, 0.00, 0.00, 1, 1, 11,  32.9395110,-106.9114310,  1394.0, 2022,  6, 24, 15, 17, 17,        0,        0,  82,   0,   1.4,   0.8,   1.1,  0, 31, 31,  0,  0, 32,  0,  0,  0,  0, 32, 36, 31, 27,  0,  0, 35,  0, 31, 29,  0,  0,  0, 26,  0,  0,  0,  0,  0, 31,  0,  0
6, 6583, 3,VE3LIC,     0.32, 3,   boost,   78.94,  86275.00, 1335.68,    5.88,     NaN, 33.5, 3.98, 3.97, 3.97,   0.00,   0.00,   0.00,  63.97,  64.15,   0.00,   0.00,   0.00,   0.00,    NaN, 3.99, 0.00, 0.00, 0.00, 0.00, 1, 1, 11,  32.9395110,-106.9114310,  1394.0, 2022,  6, 24, 15, 17, 17,        0,        0,  82,   0,   1.4,   0.8,   1.1,  0, 31, 31,  0,  0, 32,  0,  0,  0,  0, 32, 36, 31, 27,  0,  0, 35,  0, 31, 29,  0,  0,  0, 26,  0,  0,  0,  0,  0, 31,  0,  0
6, 6583, 3,VE3LIC,     0.33, 3,   boost,   78.45,  86283.00, 1334.92,    5.12,     NaN, 33.5, 3.98, 3.97, 3.97,   0.00,   0.00,   0.00,  63.97,  64.15,   0.00,   0.00,   0.00,   0.00,    NaN, 3.99, 0.00, 0.00, 0.00, 0.00, 1, 1, 11,  32.9395110,-106.9114310,  1394.0, 2022,  6, 24, 15, 17, 17,        0,        0,  82,   0,   1.4,   0.8,   1.1,  0, 31, 31,  0,  0, 32,  0,  0,  0,  0, 32, 36, 31, 27,  0,  0, 35,  0, 31, 29,  0,  0,  0, 26,  0,  0,  0,  0,  0, 31,  0,  0
6, 6583, 3,VE3LIC,     0.34, 3,   boost,   75.02,  86267.00, 1336.44,    6.64,     NaN, 33.4, 3.98, 3.96, 3.97,   0.00,   0.00,   0.00,  63.97,  64.15,   0.00,   0.00,   0.00,   0.00,    NaN, 3.98, 0.00, 0.00, 0.00, 0.00, 1, 1, 11,  32.9395110,-106.9114310,  1394.0, 2022,  6, 24, 15, 17, 17,        0,        0,  82,   0,   1.4,   0.8,   1.1,  0, 31, 31,  0,  0, 32,  0,  0,  0,  0, 32, 36, 31, 27,  0,  0, 35,  0, 31, 29,  0,  0,  0, 26,  0,  0,  0,  0,  0, 31,  0,  0
6, 6583, 3,VE3LIC,     0.34, 3,   boost,   75.02,  86267.00, 1336.44,    6.64,     NaN, 33.4, 3.98, 3.96, 3.97,   0.00,   0.00,   0.00,  63.97,  64.15,   0.00,   0.00,   0.00,   0.00,    NaN, 3.98, 0.00, 0.00, 0.00, 0.00, 1, 1, 11,  32.9395110,-106.9114310,  1394.0, 2022,  6, 24, 15, 17, 17,        0,        0,  82,   0,   1.4,   0.8,   1.1,  0, 31, 31,  0,  0, 32,  0,  0,  0,  0, 32, 36, 31, 27,  0,  0, 35,  0, 31, 29,  0,  0,  0, 26,  0,  0,  0,  0,  0, 31,  0,  0
6, 6583, 3,VE3LIC,     0.35, 3,   boost,   81.40,  86265.00, 1336.63,    6.83,     NaN, 33.4, 3.98, 3.96, 3.97,   0.00,   0.00,   0.00,  63.78,  64.15,   0.00,   0.00,   0.00,   0.00,    NaN, 3.98, 0.00, 0.00, 0.00, 0.00, 1, 1, 11,  32.9395110,-106.9114310,  1394.0, 2022,  6, 24, 15, 17, 17,        0,        0,  82,   0,   1.4,   0.8,   1.1,  0, 31, 31,  0,  0, 32,  0,  0,  0,  0, 32, 36, 31, 27,  0,  0, 35,  0, 31, 29,  0,  0,  0, 26,  0,  0,  0,  0,  0, 31,  0,  0
6, 6583, 3,VE3LIC,     0.36, 3,   boost,   78.45,  86271.00, 1336.06,    6.26,     NaN, 33.5, 3.98, 3.96, 3.97,   0.00,   0.00,   0.00,  63.78,  64.15,   0.00,   0.00,   0.00,   0.00,    NaN, 3.98, 0.00, 0.00, 0.00, 0.00, 1, 1, 11,  32.9395110,-106.9114310,  1394.0, 2022,  6, 24, 15, 17, 17,        0,        0,  82,   0,   1.4,   0.8,   1.1,  0, 31, 31,  0,  0, 32,  0,  0,  0,  0, 32, 36, 31, 27,  0,  0, 35,  0, 31, 29,  0,  0,  0, 26,  0,  0,  0,  0,  0, 31,  0,  0
6, 6583, 3,VE3LIC,     0.37, 3,   boost,   77.47,  86271.00, 1336.06,    6.26,     NaN, 33.5, 3.98, 3.96, 3.97,   0.00,   0.00,   0.00,  63.78,  64.15,   0.00,   0.00,   0.00,   0.00,    NaN, 3.98, 0.00, 0.00, 0.00, 0.00, 1, 1, 11,  32.9395110,-106.9114310,  1394.0, 2022,  6, 24, 15, 17, 17,        0,        0,  82,   0,   1.4,   0.8,   1.1,  0, 31, 31,  0,  0, 32,  0,  0,  0,  0, 32, 36, 31, 27,  0,  0, 35,  0, 31, 29,  0,  0,  0, 26,  0,  0,  0,  0,  0, 31,  0,  0
6, 6583, 3,VE3LIC,     0.38, 3,   boost,   76.00,  86277.00, 1335.49,    5.69,     NaN, 33.5, 3.98, 3.96, 3.97,   0.00,   0.00,   0.00,  63.78,  64.15,   0.00,   0.00,   0.00,   0.00,    NaN, 3.98, 0.00, 0.00, 0.00, 0.00, 1, 1, 11,  32.9395110,-106.9114310,  1394.0, 2022,  6, 24, 15, 17, 17,        0,        0,  82,   0,   1.4,   0.8,   1.1,  0, 31, 31,  0,  0, 32,  0,  0,  0,  0, 32, 36, 31, 27,  0,  0, 35,  0, 31, 29,  0,  0,  0, 26,  0,  0,  0,  0,  0, 31,  0,  0
6, 6583, 3,VE3LIC,     0.39, 3,   boost,   79.92,  86256.00, 1337.48,    7.68,     NaN, 33.4, 3.98, 3.96, 3.97,   0.00,   0.00,   0.00,  63.78,  64.15,   0.00,   0.00,   0.00,   0.00,    NaN, 3.98, 0.00, 0.00, 0.00, 0.00, 1, 1, 11,  32.9395110,-106.9114310,  1394.0, 2022,  6, 24, 15, 17, 17,        0,        0,  82,   0,   1.4,   0.8,   1.1,  0, 31, 31,  0,  0, 32,  0,  0,  0,  0, 32, 36, 31, 27,  0,  0, 35,  0, 31, 29,  0,  0,  0, 26,  0,  0,  0,  0,  0, 31,  0,  0
6, 6583, 3,VE3LIC,     0.40, 3,   boost,   79.92,  86260.00, 1337.10,    7.30,     NaN, 33.4, 3.98, 3.96, 3.97,   0.00,   0.00,   0.00,  63.78,  64.15,   0.00,   0.00,   0.00,   0.00,    NaN, 3.98, 0.00, 0.00, 0.00, 0.00, 1, 1, 11,  32.9395110,-106.9114310,  1394.0, 2022,  6, 24, 15, 17, 17,        0,        0,  82,   0,   1.4,   0.8,   1.1,  0, 31, 31,  0,  0, 32,  0,  0,  0,  0, 32, 36, 31, 27,  0,  0, 35,  0, 31, 29,  0,  0,  0, 26,  0,  0,  0,  0,  0, 31,  0,  0
6, 6583, 3,VE3LIC,     0.41, 3,   boost,   78.45,  86261.00, 1337.01,    7.20,     NaN, 33.5, 3.98, 3.96, 3.97,   0.00,   0.00,   0.00,  63.78,  64.15,   0.00,   0.00,   0.00,   0.00,    NaN, 3.98, 0.00, 0.00, 0.00, 0.00, 1, 1, 11,  32.9395110,-106.9114310,  1394.0, 2022,  6, 24, 15, 17, 17,        0,        0,  82,   0,   1.4,   0.8,   1.1,  0, 31, 31,  0,  0, 32,  0,  0,  0,  0, 32, 36, 31, 27,  0,  0, 35,  0, 31, 29,  0,  0,  0, 26,  0,  0,  0,  0,  0, 31,  0,  0
6, 6583, 3,VE3LIC,     0.42, 3,   boost,   78.94,  86252.00, 1337.86,    8.06,     NaN, 33.4, 3.98, 3.96, 3.97,   0.00,   0.00,   0.00,  63.78,  64.15,   0.00,   0.00,   0.00,   0.00,    NaN, 3.98, 0.00, 0.00, 0.00, 0.00, 1, 1, 11,  32.9395110,-106.9114310,  1394.0, 2022,  6, 24, 15, 17, 17,        0,        0,  82,   0,   1.4,   0.8,   1.1,  0, 31, 31,  0,  0, 32,  0,  0,  0,  0, 32, 36, 31, 27,  0,  0, 35,  0, 31, 29,  0,  0,  0, 26,  0,  0,  0,  0,  0, 31,  0,  0
6, 6583, 3,VE3LIC,     0.43, 3,   boost,   78.94,  86251.00, 1337.95,    8.15,     NaN, 33.5, 3.98, 3.96, 3.97,   0.00,   0.00,   0.00,  63.78,  64.15,   0.00,   0.00,   0.00,   0.00,    NaN, 3.98, 0.00, 0.00, 0.00, 0.00, 1, 1, 11,  32.9395110,-106.9114310,  1394.0, 2022,  6, 24, 15, 17, 17,        0,        0,  82,   0,   1.4,   0.8,   1.1,  0, 31, 31,  0,  0, 32,  0,  0,  0,  0, 32, 36, 31, 27,  0,  0, 35,  0, 31, 29,  0,  0,  0, 26,  0,  0,  0,  0,  0, 31,  0,  0
6, 6583, 3,VE3LIC,     0.44, 3,   boost,   78.94,  86252.00, 1337.86,    8.06,     NaN, 33.5, 3.98, 3.96, 3.97,   0.00,   0.00,   0.00,  63.78,  64.15,   0.00,   0.00,   0.00,   0.00,    NaN, 3.98, 0.00, 0.00, 0.00, 0.00, 1, 1, 11,  32.9395110,-106.9114310,  1394.0, 2022,  6, 24, 15, 17, 17,        0,        0,  82,   0,   1.4,   0.8,   1.1,  0, 31, 31,  0,  0, 32,  0,  0,  0,  0, 32, 36, 31, 27,  0,  0, 35,  0, 31, 29,  0,  0,  0, 26,  0,  0,  0,  0,  0, 31,  0,  0
6, 6583, 3,VE3LIC,     0.45, 3,   boost,   76.49,  86258.00, 1337.29,    7.49,     NaN, 33.4, 3.98, 3.96, 3.97,   0.00,   0.00,   0.00,  63.78,  64.15,   0.00,   0.00,   0.00,   0.00,    NaN, 3.98, 0.00, 0.00, 0.00, 0.00, 1, 1, 11,  32.9395110,-106.9114310,  1394.0, 2022,  6, 24, 15, 17, 17,        0,        0,  82,   0,   1.4,   0.8,   1.1,  0, 31, 31,  0,  0, 32,  0,  0,  0,  0, 32, 36, 31, 27,  0,  0, 35,  0, 31, 29,  0,  0,  0, 26,  0,  0,  0,  0,  0, 31,  0,  0
6, 6583, 3,VE3LIC,     0.46, 3,   boost,   77.47,  86238.00, 1339.19,    9.39,     NaN, 33.5, 3.98, 3.96, 3.97,   0.00,   0.00,   0.00,  63.78,  64.15,   0.00,   0.00,   0.00,   0.00,    NaN, 3.98, 0.00, 0.00, 0.00, 0.00, 1, 1, 11,  32.9395110,-106.9114310,  1394.0, 2022,  6, 24, 15, 17, 17,        0,        0,  82,   0,   1.4,   0.8,   1.1,  0, 31, 31,  0,  0, 32,  0,  0,  0,  0, 32, 36, 31, 27,  0,  0, 35,  0, 31, 29,  0,  0,  0, 26,  0,  0,  0,  0,  0, 31,  0,  0
6, 6583, 3,VE3LIC,     0.47, 3,   boost,   78.94,  86231.00, 1339.85,   10.05,     NaN, 33.5, 3.98, 3.96, 3.97,   0.00,   0.00,   0.00,  63.78,  64.15,   0.00,   0.00,   0.00,   0.00,    NaN, 3.98, 0.00, 0.00, 0.00, 0.00, 1, 1, 11,  32.9395110,-106.9114310,  1394.0, 2022,  6, 24, 15, 17, 17,        0,        0,  82,   0,   1.4,   0.8,   1.1,  0, 31, 31,  0,  0, 32,  0,  0,  0,  0, 32, 36, 31, 27,  0,  0, 35,  0, 31, 29,  0,  0,  0, 26,  0,  0,  0,  0,  0, 31,  0,  0
6, 6583, 3,VE3LIC,     0.48, 3,   boost,   76.98,  86246.00, 1338.43,    8.63,     NaN, 33.5, 3.98, 3.96, 3.97,   0.00,   0.00,   0.00,  63.78,  64.15,   0.00,   0.00,   0.00,   0.00,    NaN, 3.98, 0.00, 0.00, 0.00, 0.00, 1, 1, 11,  32.9395110,-106.9114310,  1394.0, 2022,  6, 24, 15, 17, 17,        0,        0,  82,   0,   1.4,   0.8,   1.1,  0, 31, 31,  0,  0, 32,  0,  0,  0,  0, 32, 36, 31, 27,  0,  0, 35,  0, 31, 29,  0,  0,  0, 26,  0,  0,  0,  0,  0, 31,  0,  0
6, 6583, 3,VE3LIC,     0.49, 3,   boost,   78.94,  86234.00, 1339.57,    9.77,     NaN, 33.5, 3.98, 3.96, 3.97,   0.00,   0.00,   0.00,  63.78,  64.15,   0.00,   0.00,   0.00,   0.00,    NaN, 3.98, 0.00, 0.00, 0.00, 0.00, 1, 1, 11,  32.9395110,-106.9114310,  1394.0, 2022,  6, 24, 15, 17, 17,        0,        0,  82,   0,   1.4,   0.8,   1.1,  0, 31, 31,  0,  0, 32,  0,  0,  0,  0, 32, 36, 31, 27,  0,  0, 35,  0, 31, 29,  0,  0,  0, 26,  0,  0,  0,  0,  0, 31,  0,  0
6, 6583, 3,VE3LIC,     0.50, 3,   boost,   79.43,  86229.00, 1340.04,   10.24,     NaN, 33.5, 3.98, 3.96, 3.97,   0.00,   0.00,   0.00,  63.78,  64.15,   0.00,   0.00,   0.00,   0.00,    NaN, 3.98, 0.00, 0.00, 0.00, 0.00, 1, 1, 11,  32.9395110,-106.9114310,  1394.0, 2022,  6, 24, 15, 17, 17,        0,        0,  82,   0,   1.4,   0.8,   1.1,  0, 31, 31,  0,  0, 32,  0,  0,  0,  0, 32, 36, 31, 27,  0,  0, 35,  0, 31, 29,  0,  0,  0, 26,  0,  0,  0,  0,  0, 31,  0,  0
6, 6583, 3,VE3LIC,     0.51, 3,   boost,   76.49,  86234.00, 1339.57,    9.77,     NaN, 33.4, 3.98, 3.96, 3.97,   0.00,   0.00,   0.00,  63.78,  64.15,   0.00,   0.00,   0.00,   0.00,    NaN, 3.98, 0.00, 0.00, 0.00, 0.00, 1, 1, 11,  32.9395110,-106.9114310,  1394.0, 2022,  6, 24, 15, 17, 17,        0,        0,  82,   0,   1.4,   0.8,   1.1,  0, 31, 31,  0,  0, 32,  0,  0,  0,  0, 32, 36, 31, 27,  0,  0, 35,  0, 31, 29,  0,  0,  0, 26,  0,  0,  0,  0,  0, 31,  0,  0
6, 6583, 3,VE3LIC,     0.52, 3,   boost,   79.43,  86217.00, 1341.18,   11.38,     NaN, 33.5, 3.98, 3.96, 3.97,   0.00,   0.00,   0.00,  63.78,  64.15,   0.00,   0.00,   0.00,   0.00,    NaN, 3.98, 0.00, 0.00, 0.00, 0.00, 1, 1, 11,  32.9395110,-106.9114310,  1394.0, 2022,  6, 24, 15, 17, 17,        0,        0,  82,   0,   1.4,   0.8,   1.1,  0, 31, 31,  0,  0, 32,  0,  0,  0,  0, 32, 36, 31, 27,  0,  0, 35,  0, 31, 29,  0,  0,  0, 26,  0,  0,  0,  0,  0, 31,  0,  0
6, 6583, 3,VE3LIC,     0.53, 3,   boost,   85.81,  86229.00, 1340.04,   10.24,     NaN, 33.5, 3.98, 3.96, 3.97,   0.00,   0.00,   0.00,  63.78,  64.15,   0.00,   0.00,   0.00,   0.00,    NaN, 3.98, 0.00, 0.00, 0.00, 0.00, 1, 1, 11,  32.9395110,-106.9114310,  1394.0, 2022,  6, 24, 15, 17, 17,        0,        0,  82,   0,   1.4,   0.8,   1.1,  0, 31, 31,  0,  0, 32,  0,  0,  0,  0, 32, 36, 31, 27,  0,  0, 35,  0, 31, 29,  0,  0,  0, 26,  0,  0,  0,  0,  0, 31,  0,  0
6, 6583, 3,VE3LIC,     0.54, 3,   boost,   80.41,  86216.00, 1341.27,   11.47,     NaN, 33.4, 3.98, 3.96, 3.97,   0.00,   0.00,   0.00,  63.78,  64.15,   0.00,   0.00,   0.00,   0.00,    NaN, 3.98, 0.00, 0.00, 0.00, 0.00, 1, 1, 11,  32.9395110,-106.9114310,  1394.0, 2022,  6, 24, 15, 17, 17,        0,        0,  82,   0,   1.4,   0.8,   1.1,  0, 31, 31,  0,  0, 32,  0,  0,  0,  0, 32, 36, 31, 27,  0,  0, 35,  0, 31, 29,  0,  0,  0, 26,  0,  0,  0,  0,  0, 31,  0,  0
6, 6583, 3,VE3LIC,     0.55, 3,   boost,   77.47,  86201.00, 1342.70,   12.90,     NaN, 33.5, 3.98, 3.96, 3.97,   0.00,   0.00,   0.00,  63.78,  64.15,   0.00,   0.00,   0.00,   0.00,    NaN, 3.98, 0.00, 0.00, 0.00, 0.00, 1, 1, 11,  32.9395110,-106.9114310,  1394.0, 2022,  6, 24, 15, 17, 17,        0,        0,  82,   0,   1.4,   0.8,   1.1,  0, 31, 31,  0,  0, 32,  0,  0,  0,  0, 32, 36, 31, 27,  0,  0, 35,  0, 31, 29,  0,  0,  0, 26,  0,  0,  0,  0,  0, 31,  0,  0
6, 6583, 3,VE3LIC,     0.56, 3,   boost,   80.90,  86224.00, 1340.51,   10.71,     NaN, 33.4, 3.98, 3.96, 3.97,   0.00,   0.00,   0.00,  63.78,  64.15,   0.00,   0.00,   0.00,   0.00,    NaN, 3.98, 0.00, 0.00, 0.00, 0.00, 1, 1, 11,  32.9395110,-106.9114310,  1394.0, 2022,  6, 24, 15, 17, 17,        0,        0,  82,   0,   1.4,   0.8,   1.1,  0, 31, 31,  0,  0, 32,  0,  0,  0,  0, 32, 36, 31, 27,  0,  0, 35,  0, 31, 29,  0,  0,  0, 26,  0,  0,  0,  0,  0, 31,  0,  0
